2019.11.04, 18:21:45.0916 UTC -> $GPRMC,182143,A,1027.87587,N,07314.95353,W,0,0.00,041119,003.1,W,*6A
2019.11.04, 18:29:45.0748 UTC -> $GPRMC,182943,A,1027.87587,N,07314.95353,W,0,0.00,041119,003.1,W,*6A
2019.11.04, 18:29:50.0810 UTC -> $GPRMC,182948,A,1027.87587,N,07314.95353,W,0,0.00,041119,003.1,W,*6A
2019.11.04, 18:29:55.0925 UTC -> $GPRMC,182953,A,1027.87587,N,07314.95353,W,0,0.00,041119,003.1,W,*6A
2019.11.04, 18:30:00.0876 UTC -> $GPRMC,182958,A,1027.87587,N,07314.95353,W,0,0.00,041119,003.1,W,*6A
2019.11.04, 18:30:05.0978 UTC -> $GPRMC,183003,A,1027.87587,N,07314.95353,W,0,0.00,041119,003.1,W,*6A
2019.11.04, 18:30:11.0075 UTC -> $GPRMC,183008,A,1027.87587,N,07314.95353,W,0,0.00,041119,003.1,W,*6A
2019.11.04, 18:30:16.0046 UTC -> $GPRMC,183013,A,1027.87587,N,07314.95353,W,0,0.00,041119,003.1,W,*6A
2019.11.04, 18:30:21.0071 UTC -> $GPRMC,183018,A,1027.87185,N,07314.96944,W,270,0.00,041119,003.1,W,*6A
2019.11.04, 18:30:26.0135 UTC -> $GPRMC,183023,A,1027.87135,N,07314.97716,W,265,6.42,041119,003.1,W,*6A
2019.11.04, 18:30:31.0696 UTC -> $GPRMC,183028,A,1027.87060,N,07314.98584,W,232,6.26,041119,003.1,W,*6A
2019.11.04, 18:30:36.0324 UTC -> $GPRMC,183033,A,1027.86314,N,07314.98831,W,175,5.67,041119,003.1,W,*6A
2019.11.04, 18:30:41.0382 UTC -> $GPRMC,183039,A,1027.85475,N,07314.98781,W,171,0.00,041119,003.1,W,*6A
2019.11.04, 18:30:46.0515 UTC -> $GPRMC,183044,A,1027.84756,N,07314.98711,W,176,5.54,041119,003.1,W,*6A
2019.11.04, 18:30:51.0521 UTC -> $GPRMC,183049,A,1027.84071,N,07314.98651,W,178,0.00,041119,003.1,W,*6A
2019.11.04, 18:30:56.0514 UTC -> $GPRMC,183054,A,1027.83496,N,07314.98572,W,160,0.00,041119,003.1,W,*6A
2019.11.04, 18:31:01.0582 UTC -> $GPRMC,183059,A,1027.83008,N,07314.98245,W,126,0.00,041119,003.1,W,*6A
2019.11.04, 18:31:06.0694 UTC -> $GPRMC,183104,A,1027.82941,N,07314.98141,W,107,0.00,041119,003.1,W,*6A
2019.11.04, 18:31:11.0729 UTC -> $GPRMC,183109,A,1027.82789,N,07314.97512,W,88,7.11,041119,003.1,W,*6A
2019.11.04, 18:31:16.0723 UTC -> $GPRMC,183114,A,1027.82874,N,07314.96254,W,86,10.78,041119,003.1,W,*6A
2019.11.04, 18:31:21.0865 UTC -> $GPRMC,183119,A,1027.83026,N,07314.94648,W,84,10.64,041119,003.1,W,*6A
2019.11.04, 18:31:26.0842 UTC -> $GPRMC,183124,A,1027.83181,N,07314.93018,W,83,11.54,041119,003.1,W,*6A
2019.11.04, 18:31:31.0860 UTC -> $GPRMC,183129,A,1027.83294,N,07314.91372,W,87,11.48,041119,003.1,W,*6A
2019.11.04, 18:31:36.0998 UTC -> $GPRMC,183134,A,1027.83408,N,07314.89811,W,85,11.38,041119,003.1,W,*6A
2019.11.04, 18:31:43.0060 UTC -> $GPRMC,183139,A,1027.83515,N,07314.88221,W,81,11.57,041119,003.1,W,*6A
2019.11.04, 18:31:46.0956 UTC -> $GPRMC,183144,A,1027.83660,N,07314.86584,W,90,11.49,041119,003.1,W,*6A
2019.11.04, 18:31:51.0975 UTC -> $GPRMC,183149,A,1027.83696,N,07314.85000,W,86,10.00,041119,003.1,W,*6A
2019.11.04, 18:31:57.0045 UTC -> $GPRMC,183154,A,1027.83813,N,07314.83891,W,73,0.00,041119,003.1,W,*6A
2019.11.04, 18:32:02.0099 UTC -> $GPRMC,183159,A,1027.83842,N,07314.83803,W,87,0.00,041119,003.1,W,*6A
2019.11.04, 18:32:07.0182 UTC -> $GPRMC,183204,A,1027.83842,N,07314.83803,W,87,0.00,041119,003.1,W,*6A
2019.11.04, 18:32:12.0195 UTC -> $GPRMC,183209,A,1027.83842,N,07314.83803,W,87,0.00,041119,003.1,W,*6A
2019.11.04, 18:32:17.0239 UTC -> $GPRMC,183214,A,1027.83842,N,07314.83803,W,87,0.00,041119,003.1,W,*6A
2019.11.04, 18:32:22.0296 UTC -> $GPRMC,183220,A,1027.83842,N,07314.83803,W,87,0.00,041119,003.1,W,*6A
2019.11.04, 18:32:27.0345 UTC -> $GPRMC,183225,A,1027.83842,N,07314.83803,W,87,0.00,041119,003.1,W,*6A
2019.11.04, 18:32:32.0402 UTC -> $GPRMC,183230,A,1027.83842,N,07314.83803,W,87,0.00,041119,003.1,W,*6A
2019.11.04, 18:32:37.0520 UTC -> $GPRMC,183235,A,1027.83842,N,07314.83803,W,87,0.00,041119,003.1,W,*6A
2019.11.04, 18:32:42.0505 UTC -> $GPRMC,183240,A,1027.83842,N,07314.83803,W,75,0.00,041119,003.1,W,*6A
2019.11.04, 18:32:47.0553 UTC -> $GPRMC,183245,A,1027.83937,N,07314.82976,W,83,6.96,041119,003.1,W,*6A
2019.11.04, 18:32:52.0650 UTC -> $GPRMC,183250,A,1027.83969,N,07314.81689,W,85,10.20,041119,003.1,W,*6A
2019.11.04, 18:32:57.0676 UTC -> $GPRMC,183255,A,1027.84172,N,07314.79938,W,85,12.96,041119,003.1,W,*6A
2019.11.04, 18:33:02.0690 UTC -> $GPRMC,183300,A,1027.84231,N,07314.78181,W,84,13.21,041119,003.1,W,*6A
2019.11.04, 18:33:07.0803 UTC -> $GPRMC,183305,A,1027.84369,N,07314.76186,W,84,14.37,041119,003.1,W,*6A
2019.11.04, 18:33:12.0910 UTC -> $GPRMC,183310,A,1027.84596,N,07314.74295,W,83,13.01,041119,003.1,W,*6A
2019.11.04, 18:33:17.0886 UTC -> $GPRMC,183315,A,1027.84770,N,07314.72121,W,86,15.03,041119,003.1,W,*6A
2019.11.04, 18:33:22.0916 UTC -> $GPRMC,183320,A,1027.84826,N,07314.70047,W,86,14.47,041119,003.1,W,*6A
2019.11.04, 18:33:28.0179 UTC -> $GPRMC,183325,A,1027.84971,N,07314.67815,W,85,14.29,041119,003.1,W,*6A
2019.11.04, 18:33:33.0172 UTC -> $GPRMC,183330,A,1027.85145,N,07314.65742,W,89,13.98,041119,003.1,W,*6A
2019.11.04, 18:33:47.0522 UTC -> $GPRMC,183345,A,1027.84791,N,07314.60107,W,95,13.26,041119,003.1,W,*6A
2019.11.04, 18:33:53.0215 UTC -> $GPRMC,183350,A,1027.85426,N,07314.58605,W,23,11.69,041119,003.1,W,*6A
2019.11.04, 18:33:58.0270 UTC -> $GPRMC,183356,A,1027.87389,N,07314.58878,W,339,13.34,041119,003.1,W,*6A
2019.11.04, 18:34:03.0309 UTC -> $GPRMC,183401,A,1027.89144,N,07314.59549,W,354,13.48,041119,003.1,W,*6A
2019.11.04, 18:34:08.0381 UTC -> $GPRMC,183406,A,1027.91079,N,07314.59707,W,355,14.81,041119,003.1,W,*6A
2019.11.04, 18:34:13.0432 UTC -> $GPRMC,183411,A,1027.93133,N,07314.59885,W,356,14.97,041119,003.1,W,*6A
2019.11.04, 18:34:18.0480 UTC -> $GPRMC,183416,A,1027.95180,N,07314.59906,W,2,13.76,041119,003.1,W,*6A
2019.11.04, 18:34:23.0527 UTC -> $GPRMC,183421,A,1027.97068,N,07314.59940,W,357,13.86,041119,003.1,W,*6A
2019.11.04, 18:34:28.0675 UTC -> $GPRMC,183426,A,1027.99101,N,07314.60036,W,357,15.12,041119,003.1,W,*6A
2019.11.04, 18:34:33.0711 UTC -> $GPRMC,183431,A,1028.01250,N,07314.60112,W,356,15.44,041119,003.1,W,*6A
2019.11.04, 18:34:38.0740 UTC -> $GPRMC,183436,A,1028.03348,N,07314.60227,W,356,14.80,041119,003.1,W,*6A
2019.11.04, 18:34:43.0765 UTC -> $GPRMC,183441,A,1028.05409,N,07314.60402,W,356,14.76,041119,003.1,W,*6A
2019.11.04, 18:34:48.0809 UTC -> $GPRMC,183446,A,1028.07428,N,07314.60595,W,353,14.48,041119,003.1,W,*6A
2019.11.04, 18:34:53.0930 UTC -> $GPRMC,183451,A,1028.09579,N,07314.60741,W,357,15.03,041119,003.1,W,*6A
2019.11.04, 18:34:58.0910 UTC -> $GPRMC,183456,A,1028.11186,N,07314.60741,W,357,9.86,041119,003.1,W,*6A
2019.11.04, 18:35:04.0095 UTC -> $GPRMC,183501,A,1028.12875,N,07314.60834,W,354,13.19,041119,003.1,W,*6A
2019.11.04, 18:35:08.0996 UTC -> $GPRMC,183506,A,1028.14922,N,07314.60953,W,357,15.31,041119,003.1,W,*6A
2019.11.04, 18:35:14.0129 UTC -> $GPRMC,183511,A,1028.17112,N,07314.60999,W,356,14.80,041119,003.1,W,*6A
2019.11.04, 18:35:19.0083 UTC -> $GPRMC,183516,A,1028.18961,N,07314.61102,W,358,11.17,041119,003.1,W,*6A
2019.11.04, 18:35:24.0230 UTC -> $GPRMC,183521,A,1028.19775,N,07314.61150,W,4,0.00,041119,003.1,W,*6A
2019.11.04, 18:35:29.0209 UTC -> $GPRMC,183526,A,1028.19775,N,07314.61150,W,4,0.00,041119,003.1,W,*6A
2019.11.04, 18:35:34.0676 UTC -> $GPRMC,183531,A,1028.19775,N,07314.61150,W,4,0.00,041119,003.1,W,*6A
2019.11.04, 18:35:39.0168 UTC -> $GPRMC,183537,A,1028.19775,N,07314.61150,W,4,0.00,041119,003.1,W,*6A
2019.11.04, 18:35:46.0170 UTC -> $GPRMC,183542,A,1028.19775,N,07314.61150,W,4,0.00,041119,003.1,W,*6A
2019.11.04, 18:35:49.0779 UTC -> $GPRMC,183547,A,1028.19955,N,07314.61247,W,354,6.60,041119,003.1,W,*6A
2019.11.04, 18:35:54.0554 UTC -> $GPRMC,183552,A,1028.21038,N,07314.61260,W,353,8.79,041119,003.1,W,*6A
2019.11.04, 18:35:59.0694 UTC -> $GPRMC,183557,A,1028.22475,N,07314.61304,W,355,10.79,041119,003.1,W,*6A
2019.11.04, 18:36:04.0652 UTC -> $GPRMC,183602,A,1028.24046,N,07314.61404,W,355,11.32,041119,003.1,W,*6A
2019.11.04, 18:36:09.0979 UTC -> $GPRMC,183607,A,1028.25645,N,07314.61548,W,351,11.25,041119,003.1,W,*6A
2019.11.04, 18:36:14.0834 UTC -> $GPRMC,183612,A,1028.27215,N,07314.61675,W,0,11.28,041119,003.1,W,*6A
2019.11.04, 18:36:19.0790 UTC -> $GPRMC,183617,A,1028.28778,N,07314.61758,W,355,10.87,041119,003.1,W,*6A
2019.11.04, 18:36:25.0241 UTC -> $GPRMC,183622,A,1028.30242,N,07314.61883,W,355,9.62,041119,003.1,W,*6A
2019.11.04, 18:36:29.0869 UTC -> $GPRMC,183627,A,1028.31423,N,07314.62019,W,349,7.52,041119,003.1,W,*6A
2019.11.04, 18:36:35.0011 UTC -> $GPRMC,183632,A,1028.32414,N,07314.62044,W,357,7.70,041119,003.1,W,*6A
2019.11.04, 18:36:40.0683 UTC -> $GPRMC,183637,A,1028.33412,N,07314.62067,W,354,6.54,041119,003.1,W,*6A
2019.11.04, 18:36:44.0990 UTC -> $GPRMC,183642,A,1028.34274,N,07314.62160,W,356,5.66,041119,003.1,W,*6A
2019.11.04, 18:36:50.0151 UTC -> $GPRMC,183647,A,1028.35113,N,07314.62179,W,2,6.01,041119,003.1,W,*6A
2019.11.04, 18:36:56.0926 UTC -> $GPRMC,183652,A,1028.35958,N,07314.62082,W,4,5.29,041119,003.1,W,*6A
2019.11.04, 18:36:59.0572 UTC -> $GPRMC,183657,A,1028.36390,N,07314.62046,W,350,0.00,041119,003.1,W,*6A
2019.11.04, 18:37:05.0257 UTC -> $GPRMC,183702,A,1028.36390,N,07314.62046,W,350,0.00,041119,003.1,W,*6A
2019.11.04, 18:37:10.0290 UTC -> $GPRMC,183707,A,1028.36390,N,07314.62046,W,350,0.00,041119,003.1,W,*6A
2019.11.04, 18:37:15.0315 UTC -> $GPRMC,183712,A,1028.36390,N,07314.62046,W,350,0.00,041119,003.1,W,*6A
2019.11.04, 18:37:20.0380 UTC -> $GPRMC,183718,A,1028.36390,N,07314.62046,W,350,0.00,041119,003.1,W,*6A
2019.11.04, 18:37:25.0571 UTC -> $GPRMC,183723,A,1028.36390,N,07314.62046,W,350,0.00,041119,003.1,W,*6A
2019.11.04, 18:37:30.0563 UTC -> $GPRMC,183728,A,1028.36390,N,07314.62046,W,350,0.00,041119,003.1,W,*6A
2019.11.04, 18:37:35.0513 UTC -> $GPRMC,183733,A,1028.36390,N,07314.62046,W,350,0.00,041119,003.1,W,*6A
2019.11.04, 18:37:40.0611 UTC -> $GPRMC,183738,A,1028.36390,N,07314.62046,W,350,0.00,041119,003.1,W,*6A
2019.11.04, 18:37:45.0551 UTC -> $GPRMC,183743,A,1028.36828,N,07314.62039,W,352,0.00,041119,003.1,W,*6A
2019.11.04, 18:37:52.0394 UTC -> $GPRMC,183748,A,1028.37250,N,07314.62112,W,350,0.00,041119,003.1,W,*6A
2019.11.04, 18:37:55.0065 UTC -> $GPRMC,183753,A,1028.37699,N,07314.62180,W,350,0.00,041119,003.1,W,*6A
2019.11.04, 18:38:00.0816 UTC -> $GPRMC,183758,A,1028.38131,N,07314.62242,W,353,0.00,041119,003.1,W,*6A
2019.11.04, 18:38:06.0636 UTC -> $GPRMC,183803,A,1028.38303,N,07314.62255,W,8,0.00,041119,003.1,W,*6A
2019.11.04, 18:38:14.0438 UTC -> $GPRMC,183808,A,1028.38303,N,07314.62255,W,8,0.00,041119,003.1,W,*6A
2019.11.04, 18:38:16.0730 UTC -> $GPRMC,183813,A,1028.38664,N,07314.62299,W,358,0.00,041119,003.1,W,*6A
2019.11.04, 18:38:21.0150 UTC -> $GPRMC,183818,A,1028.39176,N,07314.62341,W,359,0.00,041119,003.1,W,*6A
2019.11.04, 18:38:26.0620 UTC -> $GPRMC,183823,A,1028.39737,N,07314.62329,W,344,0.00,041119,003.1,W,*6A
2019.11.04, 18:38:31.0138 UTC -> $GPRMC,183828,A,1028.40238,N,07314.62368,W,358,0.00,041119,003.1,W,*6A
2019.11.04, 18:38:37.0049 UTC -> $GPRMC,183833,A,1028.40238,N,07314.62368,W,358,0.00,041119,003.1,W,*6A
2019.11.04, 18:38:41.0309 UTC -> $GPRMC,183838,A,1028.40433,N,07314.62394,W,353,0.00,041119,003.1,W,*6A
2019.11.04, 18:38:46.0385 UTC -> $GPRMC,183843,A,1028.40844,N,07314.62490,W,351,0.00,041119,003.1,W,*6A
2019.11.04, 18:38:52.0190 UTC -> $GPRMC,183848,A,1028.41456,N,07314.62522,W,356,0.00,041119,003.1,W,*6A
2019.11.04, 18:38:56.0996 UTC -> $GPRMC,183854,A,1028.42143,N,07314.62583,W,356,0.00,041119,003.1,W,*6A
2019.11.04, 18:39:02.0650 UTC -> $GPRMC,183859,A,1028.42646,N,07314.62607,W,354,0.00,041119,003.1,W,*6A
2019.11.04, 18:39:05.0828 UTC -> $GPRMC,183904,A,1028.42980,N,07314.62653,W,13,0.00,041119,003.1,W,*6A
2019.11.04, 18:39:11.0499 UTC -> $GPRMC,183909,A,1028.42980,N,07314.62653,W,13,0.00,041119,003.1,W,*6A
2019.11.04, 18:39:16.0594 UTC -> $GPRMC,183914,A,1028.42980,N,07314.62653,W,13,0.00,041119,003.1,W,*6A
2019.11.04, 18:39:21.0633 UTC -> $GPRMC,183919,A,1028.42980,N,07314.62653,W,13,0.00,041119,003.1,W,*6A
2019.11.04, 18:39:26.0699 UTC -> $GPRMC,183924,A,1028.42980,N,07314.62653,W,13,0.00,041119,003.1,W,*6A
2019.11.04, 18:39:32.0157 UTC -> $GPRMC,183929,A,1028.42980,N,07314.62653,W,13,0.00,041119,003.1,W,*6A
2019.11.04, 18:39:36.0748 UTC -> $GPRMC,183934,A,1028.43240,N,07314.62548,W,351,0.00,041119,003.1,W,*6A
2019.11.04, 18:39:42.0068 UTC -> $GPRMC,183939,A,1028.43705,N,07314.62541,W,352,0.00,041119,003.1,W,*6A
2019.11.04, 18:39:46.0131 UTC -> $GPRMC,183944,A,1028.44210,N,07314.62586,W,350,0.00,041119,003.1,W,*6A
2019.11.04, 18:39:51.0974 UTC -> $GPRMC,183949,A,1028.44765,N,07314.62939,W,282,0.00,041119,003.1,W,*6A
2019.11.04, 18:40:07.0137 UTC -> $GPRMC,184004,A,1028.44789,N,07314.63133,W,276,0.00,041119,003.1,W,*6A
2019.11.04, 18:40:12.0137 UTC -> $GPRMC,184009,A,1028.44789,N,07314.63133,W,276,0.00,041119,003.1,W,*6A
2019.11.04, 18:40:56.0864 UTC -> $GPRMC,184055,A,1028.44715,N,07314.63207,W,266,0.00,041119,003.1,W,*6A
2019.11.04, 18:41:02.0622 UTC -> $GPRMC,184100,A,1028.44715,N,07314.63207,W,266,0.00,041119,003.1,W,*6A
2019.11.04, 18:41:07.0670 UTC -> $GPRMC,184105,A,1028.44715,N,07314.63207,W,266,0.00,041119,003.1,W,*6A
2019.11.04, 18:41:12.0660 UTC -> $GPRMC,184110,A,1028.44715,N,07314.63207,W,266,0.00,041119,003.1,W,*6A
2019.11.04, 18:41:17.0732 UTC -> $GPRMC,184115,A,1028.44715,N,07314.63207,W,266,0.00,041119,003.1,W,*6A
2019.11.04, 18:41:22.0779 UTC -> $GPRMC,184120,A,1028.44715,N,07314.63207,W,266,0.00,041119,003.1,W,*6A
2019.11.04, 18:41:27.0878 UTC -> $GPRMC,184125,A,1028.44715,N,07314.63207,W,266,0.00,041119,003.1,W,*6A
2019.11.04, 18:41:32.0941 UTC -> $GPRMC,184130,A,1028.44715,N,07314.63207,W,266,0.00,041119,003.1,W,*6A
2019.11.04, 18:41:37.0923 UTC -> $GPRMC,184135,A,1028.44715,N,07314.63207,W,266,0.00,041119,003.1,W,*6A
2019.11.04, 18:41:42.0965 UTC -> $GPRMC,184140,A,1028.44715,N,07314.63207,W,266,0.00,041119,003.1,W,*6A
2019.11.04, 18:41:48.0045 UTC -> $GPRMC,184145,A,1028.44715,N,07314.63207,W,266,0.00,041119,003.1,W,*6A
2019.11.04, 18:41:53.0194 UTC -> $GPRMC,184150,A,1028.44715,N,07314.63207,W,266,0.00,041119,003.1,W,*6A
2019.11.04, 18:41:58.0148 UTC -> $GPRMC,184155,A,1028.44715,N,07314.63207,W,266,0.00,041119,003.1,W,*6A
2019.11.04, 18:42:03.0282 UTC -> $GPRMC,184200,A,1028.44715,N,07314.63207,W,266,0.00,041119,003.1,W,*6A
2019.11.04, 18:42:08.0243 UTC -> $GPRMC,184206,A,1028.44715,N,07314.63207,W,266,0.00,041119,003.1,W,*6A
2019.11.04, 18:42:13.0343 UTC -> $GPRMC,184211,A,1028.44715,N,07314.63207,W,266,0.00,041119,003.1,W,*6A
2019.11.04, 18:42:18.0367 UTC -> $GPRMC,184216,A,1028.44715,N,07314.63207,W,266,0.00,041119,003.1,W,*6A
2019.11.04, 18:42:23.0399 UTC -> $GPRMC,184221,A,1028.44715,N,07314.63207,W,266,0.00,041119,003.1,W,*6A
2019.11.04, 18:42:28.0502 UTC -> $GPRMC,184226,A,1028.44715,N,07314.63207,W,266,0.00,041119,003.1,W,*6A
2019.11.04, 18:42:33.0608 UTC -> $GPRMC,184231,A,1028.44715,N,07314.63207,W,266,0.00,041119,003.1,W,*6A
2019.11.04, 18:42:38.0544 UTC -> $GPRMC,184236,A,1028.44715,N,07314.63207,W,266,0.00,041119,003.1,W,*6A
2019.11.04, 18:42:43.0604 UTC -> $GPRMC,184241,A,1028.44715,N,07314.63207,W,266,0.00,041119,003.1,W,*6A
2019.11.04, 18:42:48.0662 UTC -> $GPRMC,184246,A,1028.44715,N,07314.63207,W,266,0.00,041119,003.1,W,*6A
2019.11.04, 18:42:53.0718 UTC -> $GPRMC,184251,A,1028.44715,N,07314.63207,W,266,0.00,041119,003.1,W,*6A
2019.11.04, 18:42:58.0869 UTC -> $GPRMC,184256,A,1028.44715,N,07314.63207,W,266,0.00,041119,003.1,W,*6A
2019.11.04, 18:43:03.0806 UTC -> $GPRMC,184301,A,1028.44481,N,07314.63076,W,233,0.00,041119,003.1,W,*6A
2019.11.04, 18:43:08.0854 UTC -> $GPRMC,184306,A,1028.44397,N,07314.63301,W,261,0.00,041119,003.1,W,*6A
2019.11.04, 18:43:13.0903 UTC -> $GPRMC,184311,A,1028.44397,N,07314.63301,W,267,0.00,041119,003.1,W,*6A
2019.11.04, 18:43:18.0959 UTC -> $GPRMC,184316,A,1028.44397,N,07314.63301,W,267,0.00,041119,003.1,W,*6A
2019.11.04, 18:43:23.0997 UTC -> $GPRMC,184321,A,1028.44397,N,07314.63301,W,267,0.00,041119,003.1,W,*6A
2019.11.04, 18:43:29.0073 UTC -> $GPRMC,184326,A,1028.44397,N,07314.63301,W,267,0.00,041119,003.1,W,*6A
2019.11.04, 18:43:34.0245 UTC -> $GPRMC,184331,A,1028.44397,N,07314.63301,W,243,0.00,041119,003.1,W,*6A
2019.11.04, 18:43:39.0223 UTC -> $GPRMC,184336,A,1028.44175,N,07314.63788,W,249,0.00,041119,003.1,W,*6A
2019.11.04, 18:43:44.0219 UTC -> $GPRMC,184341,A,1028.43988,N,07314.64058,W,222,0.00,041119,003.1,W,*6A
2019.11.04, 18:43:49.0267 UTC -> $GPRMC,184347,A,1028.43606,N,07314.64480,W,232,0.00,041119,003.1,W,*6A
2019.11.04, 18:43:54.0322 UTC -> $GPRMC,184352,A,1028.43376,N,07314.64845,W,246,0.00,041119,003.1,W,*6A
2019.11.04, 18:43:59.0366 UTC -> $GPRMC,184357,A,1028.43196,N,07314.65179,W,234,0.00,041119,003.1,W,*6A
2019.11.04, 18:44:04.0425 UTC -> $GPRMC,184402,A,1028.43048,N,07314.65537,W,252,0.00,041119,003.1,W,*6A
2019.11.04, 18:44:09.0490 UTC -> $GPRMC,184407,A,1028.43048,N,07314.65537,W,277,0.00,041119,003.1,W,*6A
2019.11.04, 18:44:14.0609 UTC -> $GPRMC,184412,A,1028.43048,N,07314.65537,W,277,0.00,041119,003.1,W,*6A
2019.11.04, 18:44:19.0772 UTC -> $GPRMC,184417,A,1028.43048,N,07314.65537,W,277,0.00,041119,003.1,W,*6A
2019.11.04, 18:44:24.0626 UTC -> $GPRMC,184422,A,1028.43048,N,07314.65537,W,277,0.00,041119,003.1,W,*6A
2019.11.04, 18:44:29.0844 UTC -> $GPRMC,184427,A,1028.43057,N,07314.65839,W,241,0.00,041119,003.1,W,*6A
2019.11.04, 18:44:34.0810 UTC -> $GPRMC,184432,A,1028.42707,N,07314.66345,W,227,0.00,041119,003.1,W,*6A
2019.11.04, 18:44:39.0780 UTC -> $GPRMC,184437,A,1028.42365,N,07314.66884,W,237,0.00,041119,003.1,W,*6A
2019.11.04, 18:44:44.0928 UTC -> $GPRMC,184442,A,1028.42071,N,07314.67278,W,227,0.00,041119,003.1,W,*6A
2019.11.04, 18:44:49.0886 UTC -> $GPRMC,184447,A,1028.41717,N,07314.67637,W,231,0.00,041119,003.1,W,*6A
2019.11.04, 18:44:54.0972 UTC -> $GPRMC,184452,A,1028.41248,N,07314.68127,W,227,5.15,041119,003.1,W,*6A
2019.11.04, 18:45:00.0026 UTC -> $GPRMC,184457,A,1028.40740,N,07314.68758,W,231,5.32,041119,003.1,W,*6A
2019.11.04, 18:45:05.0044 UTC -> $GPRMC,184502,A,1028.40282,N,07314.69517,W,231,6.53,041119,003.1,W,*6A
2019.11.04, 18:45:10.0083 UTC -> $GPRMC,184507,A,1028.39771,N,07314.70448,W,238,7.79,041119,003.1,W,*6A
2019.11.04, 18:45:15.0141 UTC -> $GPRMC,184512,A,1028.39220,N,07314.71381,W,239,6.55,041119,003.1,W,*6A
2019.11.04, 18:45:20.0219 UTC -> $GPRMC,184517,A,1028.38691,N,07314.72083,W,237,5.01,041119,003.1,W,*6A
2019.11.04, 18:45:25.0238 UTC -> $GPRMC,184522,A,1028.38275,N,07314.72699,W,233,0.00,041119,003.1,W,*6A
2019.11.04, 18:45:30.0281 UTC -> $GPRMC,184528,A,1028.38201,N,07314.72802,W,227,0.00,041119,003.1,W,*6A
2019.11.04, 18:45:35.0340 UTC -> $GPRMC,184533,A,1028.37881,N,07314.73266,W,226,0.00,041119,003.1,W,*6A
2019.11.04, 18:45:40.0380 UTC -> $GPRMC,184538,A,1028.37468,N,07314.73801,W,226,0.00,041119,003.1,W,*6A
2019.11.04, 18:45:45.0489 UTC -> $GPRMC,184543,A,1028.37076,N,07314.74464,W,232,5.32,041119,003.1,W,*6A
2019.11.04, 18:45:50.0474 UTC -> $GPRMC,184548,A,1028.36687,N,07314.75206,W,237,5.46,041119,003.1,W,*6A
2019.11.04, 18:45:55.0549 UTC -> $GPRMC,184553,A,1028.36303,N,07314.75911,W,238,5.74,041119,003.1,W,*6A
2019.11.04, 18:46:00.0607 UTC -> $GPRMC,184558,A,1028.35898,N,07314.76569,W,238,6.22,041119,003.1,W,*6A
2019.11.04, 18:46:05.0665 UTC -> $GPRMC,184603,A,1028.35438,N,07314.77366,W,240,6.60,041119,003.1,W,*6A
2019.11.04, 18:46:10.0710 UTC -> $GPRMC,184608,A,1028.35148,N,07314.77812,W,241,0.00,041119,003.1,W,*6A
2019.11.04, 18:46:15.0761 UTC -> $GPRMC,184613,A,1028.35148,N,07314.77812,W,241,0.00,041119,003.1,W,*6A
2019.11.04, 18:46:20.0803 UTC -> $GPRMC,184618,A,1028.34765,N,07314.78505,W,234,6.21,041119,003.1,W,*6A
2019.11.04, 18:46:25.0920 UTC -> $GPRMC,184623,A,1028.34235,N,07314.79287,W,236,7.36,041119,003.1,W,*6A
2019.11.04, 18:46:30.0915 UTC -> $GPRMC,184628,A,1028.33651,N,07314.80109,W,235,6.40,041119,003.1,W,*6A
2019.11.04, 18:46:35.0978 UTC -> $GPRMC,184633,A,1028.33158,N,07314.80804,W,239,6.34,041119,003.1,W,*6A
2019.11.04, 18:46:41.0083 UTC -> $GPRMC,184638,A,1028.32944,N,07314.81594,W,309,6.21,041119,003.1,W,*6A
2019.11.04, 18:46:46.0064 UTC -> $GPRMC,184643,A,1028.33987,N,07314.82328,W,329,10.53,041119,003.1,W,*6A
2019.11.04, 18:46:51.0161 UTC -> $GPRMC,184648,A,1028.35270,N,07314.83247,W,328,9.59,041119,003.1,W,*6A
2019.11.04, 18:46:56.0153 UTC -> $GPRMC,184653,A,1028.36395,N,07314.83993,W,325,9.58,041119,003.1,W,*6A
2019.11.04, 18:47:01.0208 UTC -> $GPRMC,184658,A,1028.37588,N,07314.84781,W,325,10.00,041119,003.1,W,*6A
2019.11.04, 18:47:06.0261 UTC -> $GPRMC,184704,A,1028.38965,N,07314.85731,W,324,10.49,041119,003.1,W,*6A
2019.11.04, 18:47:12.0120 UTC -> $GPRMC,184709,A,1028.40240,N,07314.86645,W,317,9.50,041119,003.1,W,*6A
2019.11.04, 18:47:16.0411 UTC -> $GPRMC,184714,A,1028.40344,N,07314.87812,W,240,8.70,041119,003.1,W,*6A
2019.11.04, 18:47:21.0123 UTC -> $GPRMC,184719,A,1028.39554,N,07314.88916,W,234,9.52,041119,003.1,W,*6A
2019.11.04, 18:47:26.0486 UTC -> $GPRMC,184724,A,1028.38715,N,07314.90077,W,239,9.51,041119,003.1,W,*6A
2019.11.04, 18:47:31.0481 UTC -> $GPRMC,184729,A,1028.38024,N,07314.91158,W,232,8.43,041119,003.1,W,*6A
2019.11.04, 18:47:36.0528 UTC -> $GPRMC,184734,A,1028.37267,N,07314.92299,W,240,9.80,041119,003.1,W,*6A
2019.11.04, 18:47:41.0593 UTC -> $GPRMC,184739,A,1028.36539,N,07314.93441,W,234,8.72,041119,003.1,W,*6A
2019.11.04, 18:47:46.0639 UTC -> $GPRMC,184744,A,1028.35956,N,07314.94253,W,263,6.00,041119,003.1,W,*6A
2019.11.04, 18:47:51.0672 UTC -> $GPRMC,184749,A,1028.36578,N,07314.95024,W,327,10.52,041119,003.1,W,*6A
2019.11.04, 18:47:56.0744 UTC -> $GPRMC,184754,A,1028.37863,N,07314.95863,W,328,8.49,041119,003.1,W,*6A
2019.11.04, 18:48:01.0786 UTC -> $GPRMC,184759,A,1028.38266,N,07314.96103,W,331,0.00,041119,003.1,W,*6A
2019.11.04, 18:48:06.0853 UTC -> $GPRMC,184804,A,1028.38895,N,07314.96494,W,328,6.87,041119,003.1,W,*6A
2019.11.04, 18:48:11.0873 UTC -> $GPRMC,184809,A,1028.39857,N,07314.97130,W,324,6.99,041119,003.1,W,*6A
2019.11.04, 18:48:17.0008 UTC -> $GPRMC,184814,A,1028.40286,N,07314.97404,W,344,0.00,041119,003.1,W,*6A
2019.11.04, 18:48:21.0977 UTC -> $GPRMC,184819,A,1028.40286,N,07314.97404,W,344,0.00,041119,003.1,W,*6A
2019.11.04, 18:48:27.0051 UTC -> $GPRMC,184824,A,1028.40286,N,07314.97404,W,344,0.00,041119,003.1,W,*6A
2019.11.04, 18:48:32.0131 UTC -> $GPRMC,184829,A,1028.40286,N,07314.97404,W,344,0.00,041119,003.1,W,*6A
2019.11.04, 18:48:37.0144 UTC -> $GPRMC,184834,A,1028.40433,N,07314.97686,W,317,5.27,041119,003.1,W,*6A
2019.11.04, 18:48:42.0191 UTC -> $GPRMC,184839,A,1028.40922,N,07314.98408,W,265,6.95,041119,003.1,W,*6A
2019.11.04, 18:48:47.0263 UTC -> $GPRMC,184845,A,1028.40281,N,07314.99595,W,231,10.73,041119,003.1,W,*6A
2019.11.04, 18:48:52.0290 UTC -> $GPRMC,184850,A,1028.39024,N,07315.00933,W,221,13.33,041119,003.1,W,*6A
2019.11.04, 18:48:57.0347 UTC -> $GPRMC,184855,A,1028.37516,N,07315.02192,W,215,13.92,041119,003.1,W,*6A
2019.11.04, 18:49:02.0386 UTC -> $GPRMC,184900,A,1028.35959,N,07315.03255,W,208,13.04,041119,003.1,W,*6A
2019.11.04, 18:49:07.0458 UTC -> $GPRMC,184905,A,1028.34202,N,07315.03976,W,198,16.15,041119,003.1,W,*6A
2019.11.04, 18:49:12.0489 UTC -> $GPRMC,184910,A,1028.31799,N,07315.04704,W,196,18.85,041119,003.1,W,*6A
2019.11.04, 18:49:17.0596 UTC -> $GPRMC,184915,A,1028.29211,N,07315.05502,W,195,18.82,041119,003.1,W,*6A
2019.11.04, 18:49:22.0593 UTC -> $GPRMC,184920,A,1028.26565,N,07315.06301,W,196,20.31,041119,003.1,W,*6A
2019.11.04, 18:49:28.0916 UTC -> $GPRMC,184925,A,1028.23904,N,07315.07051,W,196,19.92,041119,003.1,W,*6A
2019.11.04, 18:49:33.0167 UTC -> $GPRMC,184930,A,1028.21254,N,07315.07878,W,197,20.13,041119,003.1,W,*6A
2019.11.04, 18:49:39.0599 UTC -> $GPRMC,184935,A,1028.18616,N,07315.08786,W,200,17.60,041119,003.1,W,*6A
2019.11.04, 18:49:43.0019 UTC -> $GPRMC,184940,A,1028.17351,N,07315.09226,W,200,0.00,041119,003.1,W,*6A
2019.11.04, 18:49:47.0992 UTC -> $GPRMC,184945,A,1028.17351,N,07315.09226,W,217,0.00,041119,003.1,W,*6A
2019.11.04, 18:49:52.0914 UTC -> $GPRMC,184950,A,1028.17351,N,07315.09226,W,217,0.00,041119,003.1,W,*6A
2019.11.04, 18:49:57.0948 UTC -> $GPRMC,184955,A,1028.17351,N,07315.09226,W,217,0.00,041119,003.1,W,*6A
2019.11.04, 18:50:03.0015 UTC -> $GPRMC,185000,A,1028.17351,N,07315.09226,W,217,0.00,041119,003.1,W,*6A
2019.11.04, 18:50:08.0069 UTC -> $GPRMC,185005,A,1028.16638,N,07315.09323,W,197,7.77,041119,003.1,W,*6A
2019.11.04, 18:50:13.0159 UTC -> $GPRMC,185010,A,1028.15082,N,07315.09827,W,196,13.88,041119,003.1,W,*6A
2019.11.04, 18:50:18.0154 UTC -> $GPRMC,185015,A,1028.13085,N,07315.10430,W,196,15.92,041119,003.1,W,*6A
2019.11.04, 18:50:23.0196 UTC -> $GPRMC,185021,A,1028.10357,N,07315.11314,W,196,18.02,041119,003.1,W,*6A
2019.11.04, 18:50:28.0261 UTC -> $GPRMC,185025,A,1028.08385,N,07315.11922,W,196,18.52,041119,003.1,W,*6A
2019.11.04, 18:50:33.0341 UTC -> $GPRMC,185031,A,1028.05491,N,07315.12750,W,196,17.61,041119,003.1,W,*6A
2019.11.04, 18:50:38.0394 UTC -> $GPRMC,185036,A,1028.03145,N,07315.13438,W,197,17.78,041119,003.1,W,*6A
2019.11.04, 18:50:43.0419 UTC -> $GPRMC,185041,A,1028.00610,N,07315.14208,W,195,19.44,041119,003.1,W,*6A
2019.11.04, 18:50:48.0489 UTC -> $GPRMC,185046,A,1027.97846,N,07315.15021,W,194,20.65,041119,003.1,W,*6A
2019.11.04, 18:50:53.0559 UTC -> $GPRMC,185051,A,1027.95083,N,07315.15818,W,197,20.17,041119,003.1,W,*6A
2019.11.04, 18:50:58.0579 UTC -> $GPRMC,185056,A,1027.93012,N,07315.16640,W,218,8.94,041119,003.1,W,*6A
2019.11.04, 18:51:13.0755 UTC -> $GPRMC,185111,A,1027.89199,N,07315.18838,W,154,14.88,041119,003.1,W,*6A
2019.11.04, 18:51:18.0862 UTC -> $GPRMC,185116,A,1027.87698,N,07315.18282,W,171,5.65,041119,003.1,W,*6A
2019.11.04, 18:51:23.0968 UTC -> $GPRMC,185121,A,1027.87564,N,07315.18261,W,184,0.00,041119,003.1,W,*6A
2019.11.04, 18:51:28.0971 UTC -> $GPRMC,185126,A,1027.87564,N,07315.18261,W,184,0.00,041119,003.1,W,*6A
2019.11.04, 18:51:34.0018 UTC -> $GPRMC,185131,A,1027.87564,N,07315.18261,W,184,0.00,041119,003.1,W,*6A
2019.11.04, 18:51:39.0416 UTC -> $GPRMC,185136,A,1027.87235,N,07315.18277,W,177,6.40,041119,003.1,W,*6A
2019.11.04, 18:51:44.0075 UTC -> $GPRMC,185141,A,1027.86035,N,07315.18454,W,197,11.76,041119,003.1,W,*6A
2019.11.04, 18:51:49.0119 UTC -> $GPRMC,185146,A,1027.84020,N,07315.19048,W,196,15.61,041119,003.1,W,*6A
2019.11.04, 18:51:54.0194 UTC -> $GPRMC,185151,A,1027.81986,N,07315.19715,W,196,14.94,041119,003.1,W,*6A
2019.11.04, 18:51:59.0260 UTC -> $GPRMC,185156,A,1027.79919,N,07315.20382,W,197,17.94,041119,003.1,W,*6A
2019.11.04, 18:52:04.0375 UTC -> $GPRMC,185202,A,1027.76848,N,07315.21389,W,196,18.48,041119,003.1,W,*6A
2019.11.04, 18:52:09.0819 UTC -> $GPRMC,185207,A,1027.74512,N,07315.22148,W,197,16.41,041119,003.1,W,*6A
2019.11.04, 18:52:14.0376 UTC -> $GPRMC,185212,A,1027.72463,N,07315.22811,W,199,16.38,041119,003.1,W,*6A
2019.11.04, 18:52:19.0444 UTC -> $GPRMC,185217,A,1027.71001,N,07315.23363,W,202,0.00,041119,003.1,W,*6A
2019.11.04, 18:52:24.0497 UTC -> $GPRMC,185222,A,1027.70899,N,07315.23399,W,181,0.00,041119,003.1,W,*6A
2019.11.04, 18:52:29.0558 UTC -> $GPRMC,185227,A,1027.70118,N,07315.23700,W,200,10.33,041119,003.1,W,*6A
2019.11.04, 18:52:34.0606 UTC -> $GPRMC,185232,A,1027.68174,N,07315.24568,W,208,17.01,041119,003.1,W,*6A
2019.11.04, 18:52:39.0620 UTC -> $GPRMC,185237,A,1027.65776,N,07315.25829,W,207,20.38,041119,003.1,W,*6A
2019.11.04, 18:52:44.0732 UTC -> $GPRMC,185242,A,1027.63173,N,07315.27295,W,207,21.27,041119,003.1,W,*6A
2019.11.04, 18:52:49.0715 UTC -> $GPRMC,185247,A,1027.60640,N,07315.28668,W,208,19.92,041119,003.1,W,*6A
2019.11.04, 18:52:54.0870 UTC -> $GPRMC,185252,A,1027.58241,N,07315.30015,W,208,20.22,041119,003.1,W,*6A
2019.11.04, 18:52:59.0839 UTC -> $GPRMC,185257,A,1027.55688,N,07315.31398,W,208,20.61,041119,003.1,W,*6A
2019.11.04, 18:53:04.0917 UTC -> $GPRMC,185302,A,1027.53191,N,07315.32801,W,208,20.58,041119,003.1,W,*6A
2019.11.04, 18:53:10.0014 UTC -> $GPRMC,185307,A,1027.50719,N,07315.34234,W,208,20.28,041119,003.1,W,*6A
2019.11.04, 18:53:15.0063 UTC -> $GPRMC,185312,A,1027.48261,N,07315.35591,W,209,19.42,041119,003.1,W,*6A
2019.11.04, 18:53:20.0038 UTC -> $GPRMC,185317,A,1027.46295,N,07315.36791,W,214,12.00,041119,003.1,W,*6A
2019.11.04, 18:53:25.0136 UTC -> $GPRMC,185322,A,1027.45685,N,07315.37150,W,195,0.00,041119,003.1,W,*6A
2019.11.04, 18:53:30.0189 UTC -> $GPRMC,185327,A,1027.45421,N,07315.37260,W,196,0.00,041119,003.1,W,*6A
2019.11.04, 18:53:35.0645 UTC -> $GPRMC,185332,A,1027.45083,N,07315.37411,W,199,0.00,041119,003.1,W,*6A
2019.11.04, 18:53:40.0218 UTC -> $GPRMC,185337,A,1027.45083,N,07315.37411,W,199,0.00,041119,003.1,W,*6A
2019.11.04, 18:53:45.0281 UTC -> $GPRMC,185342,A,1027.45083,N,07315.37411,W,199,0.00,041119,003.1,W,*6A
2019.11.04, 18:53:50.0318 UTC -> $GPRMC,185348,A,1027.45083,N,07315.37411,W,199,0.00,041119,003.1,W,*6A
2019.11.04, 18:53:55.0377 UTC -> $GPRMC,185353,A,1027.45083,N,07315.37411,W,199,0.00,041119,003.1,W,*6A
2019.11.04, 18:54:00.0416 UTC -> $GPRMC,185358,A,1027.45083,N,07315.37411,W,199,0.00,041119,003.1,W,*6A
2019.11.04, 18:54:05.0484 UTC -> $GPRMC,185403,A,1027.44904,N,07315.37530,W,203,7.44,041119,003.1,W,*6A
2019.11.04, 18:54:10.0533 UTC -> $GPRMC,185408,A,1027.43656,N,07315.38122,W,208,12.54,041119,003.1,W,*6A
2019.11.04, 18:54:15.0608 UTC -> $GPRMC,185413,A,1027.41810,N,07315.39087,W,206,14.45,041119,003.1,W,*6A
2019.11.04, 18:54:20.0676 UTC -> $GPRMC,185418,A,1027.40058,N,07315.40074,W,212,14.38,041119,003.1,W,*6A
2019.11.04, 18:54:25.0756 UTC -> $GPRMC,185423,A,1027.38431,N,07315.41050,W,216,11.83,041119,003.1,W,*6A
2019.11.04, 18:54:30.0795 UTC -> $GPRMC,185428,A,1027.37575,N,07315.41622,W,212,0.00,041119,003.1,W,*6A
2019.11.04, 18:54:35.0778 UTC -> $GPRMC,185433,A,1027.37250,N,07315.41821,W,207,0.00,041119,003.1,W,*6A
2019.11.04, 18:54:40.0900 UTC -> $GPRMC,185438,A,1027.36579,N,07315.42105,W,203,7.21,041119,003.1,W,*6A
2019.11.04, 18:54:45.0894 UTC -> $GPRMC,185443,A,1027.35279,N,07315.42719,W,209,11.96,041119,003.1,W,*6A
2019.11.04, 18:54:50.0947 UTC -> $GPRMC,185448,A,1027.33637,N,07315.43654,W,208,14.13,041119,003.1,W,*6A
2019.11.04, 18:54:55.0978 UTC -> $GPRMC,185453,A,1027.31599,N,07315.44842,W,208,17.96,041119,003.1,W,*6A
2019.11.04, 18:55:01.0038 UTC -> $GPRMC,185458,A,1027.29204,N,07315.46118,W,209,18.25,041119,003.1,W,*6A
2019.11.04, 18:55:06.0099 UTC -> $GPRMC,185503,A,1027.26999,N,07315.47243,W,209,17.34,041119,003.1,W,*6A
2019.11.04, 18:55:11.0166 UTC -> $GPRMC,185508,A,1027.24935,N,07315.48410,W,209,17.84,041119,003.1,W,*6A
2019.11.04, 18:55:16.0193 UTC -> $GPRMC,185513,A,1027.22526,N,07315.49796,W,208,21.06,041119,003.1,W,*6A
2019.11.04, 18:55:21.0278 UTC -> $GPRMC,185519,A,1027.19450,N,07315.51588,W,208,21.34,041119,003.1,W,*6A
2019.11.04, 18:55:26.0316 UTC -> $GPRMC,185524,A,1027.16772,N,07315.53081,W,210,22.30,041119,003.1,W,*6A
2019.11.04, 18:55:31.0361 UTC -> $GPRMC,185529,A,1027.14057,N,07315.54666,W,207,22.51,041119,003.1,W,*6A
2019.11.04, 18:55:36.0423 UTC -> $GPRMC,185534,A,1027.11211,N,07315.56198,W,208,23.47,041119,003.1,W,*6A
2019.11.04, 18:55:41.0515 UTC -> $GPRMC,185539,A,1027.08278,N,07315.57758,W,209,23.82,041119,003.1,W,*6A
2019.11.04, 18:55:47.0629 UTC -> $GPRMC,185544,A,1027.05370,N,07315.59384,W,209,23.28,041119,003.1,W,*6A
2019.11.04, 18:55:51.0569 UTC -> $GPRMC,185549,A,1027.02552,N,07315.60990,W,209,22.88,041119,003.1,W,*6A
2019.11.04, 18:55:56.0622 UTC -> $GPRMC,185554,A,1026.99803,N,07315.62487,W,208,22.33,041119,003.1,W,*6A
2019.11.04, 18:56:01.0675 UTC -> $GPRMC,185559,A,1026.97071,N,07315.63951,W,210,20.21,041119,003.1,W,*6A
2019.11.04, 18:56:06.0730 UTC -> $GPRMC,185604,A,1026.95535,N,07315.64970,W,240,6.79,041119,003.1,W,*6A
2019.11.04, 18:56:11.0774 UTC -> $GPRMC,185609,A,1026.96041,N,07315.65782,W,322,10.06,041119,003.1,W,*6A
2019.11.04, 18:56:16.0924 UTC -> $GPRMC,185614,A,1026.97456,N,07315.66830,W,320,13.63,041119,003.1,W,*6A
2019.11.04, 18:56:21.0889 UTC -> $GPRMC,185619,A,1026.99109,N,07315.68200,W,322,16.69,041119,003.1,W,*6A
2019.11.04, 18:56:26.0941 UTC -> $GPRMC,185624,A,1027.01180,N,07315.69809,W,322,19.54,041119,003.1,W,*6A
2019.11.04, 18:56:31.0984 UTC -> $GPRMC,185629,A,1027.03312,N,07315.71561,W,321,19.61,041119,003.1,W,*6A
2019.11.04, 18:56:37.0023 UTC -> $GPRMC,185634,A,1027.05581,N,07315.73193,W,322,20.15,041119,003.1,W,*6A
2019.11.04, 18:56:42.0474 UTC -> $GPRMC,185639,A,1027.07736,N,07315.74939,W,321,19.60,041119,003.1,W,*6A
2019.11.04, 18:56:47.0118 UTC -> $GPRMC,185644,A,1027.09835,N,07315.76653,W,322,17.90,041119,003.1,W,*6A
2019.11.04, 18:56:52.0259 UTC -> $GPRMC,185649,A,1027.11722,N,07315.78224,W,323,17.00,041119,003.1,W,*6A
2019.11.04, 18:56:58.0251 UTC -> $GPRMC,185654,A,1027.13628,N,07315.79676,W,321,17.24,041119,003.1,W,*6A
2019.11.04, 18:57:02.0731 UTC -> $GPRMC,185700,A,1027.15895,N,07315.81279,W,323,17.80,041119,003.1,W,*6A
2019.11.04, 18:57:07.0342 UTC -> $GPRMC,185705,A,1027.17902,N,07315.82785,W,320,17.87,041119,003.1,W,*6A
2019.11.04, 18:57:12.0433 UTC -> $GPRMC,185710,A,1027.19768,N,07315.84285,W,320,16.53,041119,003.1,W,*6A
2019.11.04, 18:57:17.0458 UTC -> $GPRMC,185715,A,1027.21562,N,07315.85755,W,322,16.38,041119,003.1,W,*6A
2019.11.04, 18:57:22.0534 UTC -> $GPRMC,185720,A,1027.23415,N,07315.87165,W,323,16.58,041119,003.1,W,*6A
2019.11.04, 18:57:27.0531 UTC -> $GPRMC,185725,A,1027.25171,N,07315.88512,W,320,14.93,041119,003.1,W,*6A
2019.11.04, 18:57:32.0593 UTC -> $GPRMC,185730,A,1027.26493,N,07315.89536,W,327,5.40,041119,003.1,W,*6A
2019.11.04, 18:57:37.0633 UTC -> $GPRMC,185735,A,1027.26766,N,07315.89976,W,268,0.00,041119,003.1,W,*6A
2019.11.04, 18:57:42.0678 UTC -> $GPRMC,185740,A,1027.26151,N,07315.90827,W,229,9.60,041119,003.1,W,*6A
2019.11.04, 18:57:47.0733 UTC -> $GPRMC,185745,A,1027.25372,N,07315.91732,W,226,0.00,041119,003.1,W,*6A
2019.11.04, 18:57:52.0790 UTC -> $GPRMC,185750,A,1027.25203,N,07315.91966,W,235,0.00,041119,003.1,W,*6A
2019.11.04, 18:57:57.0829 UTC -> $GPRMC,185755,A,1027.24631,N,07315.92476,W,222,8.08,041119,003.1,W,*6A
2019.11.04, 18:58:04.0654 UTC -> $GPRMC,185800,A,1027.23445,N,07315.93863,W,226,14.37,041119,003.1,W,*6A
2019.11.04, 18:58:07.0935 UTC -> $GPRMC,185805,A,1027.21860,N,07315.95731,W,231,16.22,041119,003.1,W,*6A
2019.11.04, 18:58:13.0086 UTC -> $GPRMC,185810,A,1027.20336,N,07315.97838,W,231,17.57,041119,003.1,W,*6A
2019.11.04, 18:58:18.0076 UTC -> $GPRMC,185815,A,1027.18796,N,07315.99896,W,234,17.91,041119,003.1,W,*6A
2019.11.04, 18:58:23.0091 UTC -> $GPRMC,185820,A,1027.17276,N,07316.01823,W,230,16.61,041119,003.1,W,*6A
2019.11.04, 18:58:28.0205 UTC -> $GPRMC,185825,A,1027.16240,N,07316.03146,W,242,0.00,041119,003.1,W,*6A
2019.11.04, 18:58:33.0191 UTC -> $GPRMC,185830,A,1027.16240,N,07316.03146,W,241,0.00,041119,003.1,W,*6A
2019.11.04, 18:58:38.0237 UTC -> $GPRMC,185835,A,1027.16240,N,07316.03146,W,241,0.00,041119,003.1,W,*6A
2019.11.04, 18:58:43.0302 UTC -> $GPRMC,185841,A,1027.15768,N,07316.03710,W,231,8.22,041119,003.1,W,*6A
2019.11.04, 18:58:48.0438 UTC -> $GPRMC,185846,A,1027.14991,N,07316.04631,W,227,0.00,041119,003.1,W,*6A
2019.11.04, 18:58:53.0439 UTC -> $GPRMC,185851,A,1027.14774,N,07316.04895,W,221,0.00,041119,003.1,W,*6A
2019.11.04, 18:58:58.0461 UTC -> $GPRMC,185856,A,1027.14188,N,07316.05530,W,224,9.00,041119,003.1,W,*6A
2019.11.04, 18:59:03.0518 UTC -> $GPRMC,185901,A,1027.13108,N,07316.06968,W,234,14.03,041119,003.1,W,*6A
2019.11.04, 18:59:08.0556 UTC -> $GPRMC,185906,A,1027.11876,N,07316.08779,W,231,16.07,041119,003.1,W,*6A
2019.11.04, 18:59:13.0616 UTC -> $GPRMC,185911,A,1027.10492,N,07316.10637,W,232,15.86,041119,003.1,W,*6A
2019.11.04, 18:59:18.0700 UTC -> $GPRMC,185916,A,1027.09318,N,07316.12225,W,237,7.84,041119,003.1,W,*6A
2019.11.04, 18:59:23.0702 UTC -> $GPRMC,185921,A,1027.09195,N,07316.12854,W,300,7.27,041119,003.1,W,*6A
2019.11.04, 18:59:28.0778 UTC -> $GPRMC,185926,A,1027.10390,N,07316.13829,W,325,13.99,041119,003.1,W,*6A
2019.11.04, 18:59:33.0797 UTC -> $GPRMC,185931,A,1027.12097,N,07316.15147,W,322,15.96,041119,003.1,W,*6A
2019.11.04, 18:59:38.0863 UTC -> $GPRMC,185936,A,1027.13984,N,07316.16628,W,323,15.82,041119,003.1,W,*6A
2019.11.04, 18:59:43.0982 UTC -> $GPRMC,185941,A,1027.15849,N,07316.17967,W,323,16.20,041119,003.1,W,*6A
2019.11.04, 18:59:49.0473 UTC -> $GPRMC,185946,A,1027.17673,N,07316.19375,W,322,15.23,041119,003.1,W,*6A
2019.11.04, 18:59:54.0002 UTC -> $GPRMC,185951,A,1027.19209,N,07316.20512,W,321,13.17,041119,003.1,W,*6A
2019.11.04, 18:59:59.0059 UTC -> $GPRMC,185956,A,1027.20774,N,07316.21688,W,320,12.94,041119,003.1,W,*6A
2019.11.04, 19:00:04.0419 UTC -> $GPRMC,190001,A,1027.21076,N,07316.23133,W,230,11.67,041119,003.1,W,*6A
2019.11.04, 19:00:09.0185 UTC -> $GPRMC,190006,A,1027.19673,N,07316.24738,W,229,17.84,041119,003.1,W,*6A
2019.11.04, 19:00:14.0208 UTC -> $GPRMC,190011,A,1027.18086,N,07316.26777,W,230,17.18,041119,003.1,W,*6A
2019.11.04, 19:00:19.0261 UTC -> $GPRMC,190017,A,1027.17248,N,07316.28093,W,282,0.00,041119,003.1,W,*6A
2019.11.04, 19:00:24.0339 UTC -> $GPRMC,190022,A,1027.17248,N,07316.28093,W,282,0.00,041119,003.1,W,*6A
2019.11.04, 19:00:29.0356 UTC -> $GPRMC,190027,A,1027.17248,N,07316.28093,W,282,0.00,041119,003.1,W,*6A
2019.11.04, 19:00:34.0416 UTC -> $GPRMC,190032,A,1027.17160,N,07316.28592,W,293,0.00,041119,003.1,W,*6A
2019.11.04, 19:00:39.0476 UTC -> $GPRMC,190037,A,1027.17908,N,07316.29249,W,334,8.32,041119,003.1,W,*6A
2019.11.04, 19:00:44.0554 UTC -> $GPRMC,190042,A,1027.19231,N,07316.30141,W,327,12.13,041119,003.1,W,*6A
2019.11.04, 19:00:49.0577 UTC -> $GPRMC,190047,A,1027.20913,N,07316.30845,W,344,11.92,041119,003.1,W,*6A
2019.11.04, 19:00:54.0617 UTC -> $GPRMC,190052,A,1027.22398,N,07316.31242,W,343,10.58,041119,003.1,W,*6A
2019.11.04, 19:00:59.0694 UTC -> $GPRMC,190057,A,1027.23988,N,07316.31712,W,343,10.97,041119,003.1,W,*6A
2019.11.04, 19:01:04.0733 UTC -> $GPRMC,190102,A,1027.25365,N,07316.32249,W,319,7.67,041119,003.1,W,*6A
2019.11.04, 19:01:09.0839 UTC -> $GPRMC,190107,A,1027.25310,N,07316.33411,W,247,10.89,041119,003.1,W,*6A
2019.11.04, 19:01:15.0183 UTC -> $GPRMC,190112,A,1027.24680,N,07316.34917,W,254,8.53,041119,003.1,W,*6A
2019.11.04, 19:01:19.0935 UTC -> $GPRMC,190117,A,1027.24044,N,07316.36359,W,251,13.69,041119,003.1,W,*6A
2019.11.04, 19:01:24.0935 UTC -> $GPRMC,190122,A,1027.23520,N,07316.38218,W,256,10.78,041119,003.1,W,*6A
2019.11.04, 19:01:30.0039 UTC -> $GPRMC,190127,A,1027.23305,N,07316.39139,W,248,0.00,041119,003.1,W,*6A
2019.11.04, 19:01:35.0035 UTC -> $GPRMC,190132,A,1027.23305,N,07316.39139,W,248,0.00,041119,003.1,W,*6A
2019.11.04, 19:01:40.0260 UTC -> $GPRMC,190137,A,1027.23259,N,07316.39181,W,253,0.00,041119,003.1,W,*6A
2019.11.04, 19:01:44.0515 UTC -> $GPRMC,190142,A,1027.22911,N,07316.40237,W,249,11.25,041119,003.1,W,*6A
2019.11.04, 19:01:50.0258 UTC -> $GPRMC,190147,A,1027.22388,N,07316.42028,W,251,12.65,041119,003.1,W,*6A
2019.11.04, 19:01:55.0341 UTC -> $GPRMC,190152,A,1027.21984,N,07316.43669,W,258,9.84,041119,003.1,W,*6A
2019.11.04, 19:02:00.0481 UTC -> $GPRMC,190158,A,1027.21048,N,07316.44538,W,171,9.60,041119,003.1,W,*6A
2019.11.04, 19:02:05.0491 UTC -> $GPRMC,190203,A,1027.19666,N,07316.44371,W,172,9.30,041119,003.1,W,*6A
2019.11.04, 19:02:10.0542 UTC -> $GPRMC,190208,A,1027.19273,N,07316.44307,W,159,0.00,041119,003.1,W,*6A
2019.11.04, 19:02:15.0559 UTC -> $GPRMC,190213,A,1027.19273,N,07316.44307,W,159,0.00,041119,003.1,W,*6A
2019.11.04, 19:02:20.0630 UTC -> $GPRMC,190218,A,1027.19273,N,07316.44307,W,159,0.00,041119,003.1,W,*6A
2019.11.04, 19:02:25.0640 UTC -> $GPRMC,190223,A,1027.19273,N,07316.44307,W,159,0.00,041119,003.1,W,*6A
2019.11.04, 19:02:30.0818 UTC -> $GPRMC,190228,A,1027.19273,N,07316.44307,W,159,0.00,041119,003.1,W,*6A
2019.11.04, 19:02:35.0838 UTC -> $GPRMC,190233,A,1027.19273,N,07316.44307,W,159,0.00,041119,003.1,W,*6A
2019.11.04, 19:02:40.0854 UTC -> $GPRMC,190238,A,1027.19273,N,07316.44307,W,159,0.00,041119,003.1,W,*6A
2019.11.04, 19:02:45.0903 UTC -> $GPRMC,190243,A,1027.18779,N,07316.44231,W,169,6.92,041119,003.1,W,*6A
2019.11.04, 19:02:50.0878 UTC -> $GPRMC,190248,A,1027.17005,N,07316.44010,W,172,14.65,041119,003.1,W,*6A
2019.11.04, 19:02:55.0935 UTC -> $GPRMC,190253,A,1027.14698,N,07316.43620,W,169,18.54,041119,003.1,W,*6A
2019.11.04, 19:03:00.0988 UTC -> $GPRMC,190258,A,1027.11957,N,07316.43270,W,173,19.83,041119,003.1,W,*6A
2019.11.04, 19:03:06.0033 UTC -> $GPRMC,190303,A,1027.09194,N,07316.42889,W,171,20.75,041119,003.1,W,*6A
2019.11.04, 19:03:11.0257 UTC -> $GPRMC,190308,A,1027.06391,N,07316.42461,W,171,19.62,041119,003.1,W,*6A
2019.11.04, 19:03:16.0235 UTC -> $GPRMC,190313,A,1027.03820,N,07316.42109,W,171,14.81,041119,003.1,W,*6A
2019.11.04, 19:03:21.0213 UTC -> $GPRMC,190318,A,1027.02421,N,07316.42021,W,189,5.58,041119,003.1,W,*6A
2019.11.04, 19:03:26.0305 UTC -> $GPRMC,190323,A,1027.02025,N,07316.42914,W,259,11.80,041119,003.1,W,*6A
2019.11.04, 19:03:31.0333 UTC -> $GPRMC,190328,A,1027.01737,N,07316.44778,W,256,14.51,041119,003.1,W,*6A
2019.11.04, 19:03:36.0483 UTC -> $GPRMC,190334,A,1027.01365,N,07316.47242,W,258,12.00,041119,003.1,W,*6A
2019.11.04, 19:03:41.0394 UTC -> $GPRMC,190339,A,1027.01215,N,07316.47979,W,237,0.00,041119,003.1,W,*6A
2019.11.04, 19:03:46.0491 UTC -> $GPRMC,190344,A,1027.00723,N,07316.48188,W,178,0.00,041119,003.1,W,*6A
2019.11.04, 19:03:51.0536 UTC -> $GPRMC,190349,A,1027.00141,N,07316.48089,W,170,5.69,041119,003.1,W,*6A
2019.11.04, 19:03:56.0601 UTC -> $GPRMC,190354,A,1026.99044,N,07316.47973,W,181,9.31,041119,003.1,W,*6A
2019.11.04, 19:04:01.0632 UTC -> $GPRMC,190359,A,1026.97604,N,07316.47875,W,172,10.28,041119,003.1,W,*6A
2019.11.04, 19:04:06.0714 UTC -> $GPRMC,190404,A,1026.96106,N,07316.47689,W,170,10.78,041119,003.1,W,*6A
2019.11.04, 19:04:11.0699 UTC -> $GPRMC,190409,A,1026.94702,N,07316.47553,W,173,10.08,041119,003.1,W,*6A
2019.11.04, 19:04:16.0755 UTC -> $GPRMC,190414,A,1026.93292,N,07316.47364,W,171,10.32,041119,003.1,W,*6A
2019.11.04, 19:04:21.0854 UTC -> $GPRMC,190419,A,1026.92232,N,07316.47221,W,169,0.00,041119,003.1,W,*6A
2019.11.04, 19:04:26.0932 UTC -> $GPRMC,190424,A,1026.91541,N,07316.47119,W,180,7.24,041119,003.1,W,*6A
2019.11.04, 19:04:31.0983 UTC -> $GPRMC,190429,A,1026.90489,N,07316.47053,W,172,9.74,041119,003.1,W,*6A
2019.11.04, 19:04:37.0039 UTC -> $GPRMC,190434,A,1026.88834,N,07316.46842,W,173,13.35,041119,003.1,W,*6A
2019.11.04, 19:04:44.0360 UTC -> $GPRMC,190439,A,1026.86791,N,07316.46497,W,171,13.90,041119,003.1,W,*6A
2019.11.04, 19:04:46.0554 UTC -> $GPRMC,190444,A,1026.85334,N,07316.46332,W,187,0.00,041119,003.1,W,*6A
2019.11.04, 19:04:54.0331 UTC -> $GPRMC,190449,A,1026.85003,N,07316.46535,W,237,7.23,041119,003.1,W,*6A
2019.11.04, 19:04:56.0523 UTC -> $GPRMC,190454,A,1026.84541,N,07316.48091,W,254,15.71,041119,003.1,W,*6A
2019.11.04, 19:05:42.0380 UTC -> $GPRMC,190540,A,1026.76952,N,07316.65963,W,245,13.87,041119,003.1,W,*6A
2019.11.04, 19:05:49.0155 UTC -> $GPRMC,190545,A,1026.75986,N,07316.66913,W,174,6.99,041119,003.1,W,*6A
2019.11.04, 19:05:52.0837 UTC -> $GPRMC,190550,A,1026.75242,N,07316.66522,W,150,7.78,041119,003.1,W,*6A
2019.11.04, 19:06:48.0010 UTC -> $GPRMC,190645,A,1026.64658,N,07316.61975,W,248,7.50,041119,003.1,W,*6A
2019.11.04, 19:06:53.0005 UTC -> $GPRMC,190650,A,1026.64011,N,07316.63605,W,245,13.59,041119,003.1,W,*6A
2019.11.04, 19:06:58.0025 UTC -> $GPRMC,190655,A,1026.63184,N,07316.65441,W,248,14.67,041119,003.1,W,*6A
2019.11.04, 19:07:02.0396 UTC -> $GPRMC,190700,A,1026.62293,N,07316.67449,W,248,15.46,041119,003.1,W,*6A
2019.11.04, 19:07:12.0659 UTC -> $GPRMC,190710,A,1026.60323,N,07316.71635,W,245,17.51,041119,003.1,W,*6A
2019.11.04, 19:07:19.0866 UTC -> $GPRMC,190715,A,1026.59317,N,07316.73838,W,248,17.40,041119,003.1,W,*6A
2019.11.04, 19:07:22.0626 UTC -> $GPRMC,190720,A,1026.58259,N,07316.76144,W,247,17.75,041119,003.1,W,*6A
2019.11.04, 19:07:28.0339 UTC -> $GPRMC,190726,A,1026.57004,N,07316.78769,W,245,16.68,041119,003.1,W,*6A
2019.11.04, 19:07:33.0437 UTC -> $GPRMC,190731,A,1026.56055,N,07316.80878,W,247,16.10,041119,003.1,W,*6A
2019.11.04, 19:07:38.0542 UTC -> $GPRMC,190736,A,1026.55149,N,07316.82930,W,245,15.57,041119,003.1,W,*6A
2019.11.04, 19:07:43.0597 UTC -> $GPRMC,190741,A,1026.54271,N,07316.84663,W,245,10.83,041119,003.1,W,*6A
2019.11.04, 19:07:48.0721 UTC -> $GPRMC,190746,A,1026.54114,N,07316.85632,W,320,6.39,041119,003.1,W,*6A
2019.11.04, 19:07:53.0683 UTC -> $GPRMC,190751,A,1026.55074,N,07316.86049,W,340,8.43,041119,003.1,W,*6A
2019.11.08, 03:41:53.0425 UTC -> $GPRMC,230746,A,1026.58280,N,07315.70369,W,0,0.00,020819,003.1,W,*6A
2019.11.08, 03:52:10.0528 UTC -> $GPRMC,230746,A,1026.58280,N,07315.70369,W,0,0.00,020819,003.1,W,*6A
2019.11.08, 03:52:38.0104 UTC -> $GPRMC,230746,A,1026.58280,N,07315.70369,W,0,0.00,020819,003.1,W,*6A
2019.11.08, 03:57:51.0610 UTC -> $GPRMC,230746,A,1026.58280,N,07315.70369,W,0,0.00,020819,003.1,W,*6A
2019.11.08, 04:26:15.0892 UTC -> $GPRMC,230746,A,1026.58280,N,07315.70369,W,0,0.00,020819,003.1,W,*6A
2019.11.08, 04:26:37.0754 UTC -> $GPRMC,230746,A,1026.58280,N,07315.70369,W,0,0.00,020819,003.1,W,*6A
2019.11.08, 04:28:54.0861 UTC -> $GPRMC,230746,A,1026.58280,N,07315.70369,W,0,0.00,020819,003.1,W,*6A
2019.11.08, 04:29:19.0043 UTC -> $GPRMC,230746,A,1026.58280,N,07315.70369,W,0,0.00,020819,003.1,W,*6A
2019.11.08, 04:30:28.0250 UTC -> $GPRMC,230746,A,1026.58280,N,07315.70369,W,0,0.00,020819,003.1,W,*6A
2019.11.08, 04:42:14.0921 UTC -> $GPRMC,230746,A,1026.58280,N,07315.70369,W,0,0.00,020819,003.1,W,*6A
2019.11.08, 04:42:26.0842 UTC -> $GPRMC,230746,A,1026.58280,N,07315.70369,W,0,0.00,020819,003.1,W,*6A
2019.11.08, 04:43:37.0547 UTC -> $GPRMC,230746,A,1026.58280,N,07315.70369,W,0,0.00,020819,003.1,W,*6A
2019.11.08, 04:43:53.0165 UTC -> $GPRMC,230746,A,1026.58280,N,07315.70369,W,0,0.00,020819,003.1,W,*6A
2019.11.08, 04:45:02.0676 UTC -> $GPRMC,230746,A,1026.58280,N,07315.70369,W,0,0.00,020819,003.1,W,*6A
2019.11.24, 17:24:53.0896 UTC -> $GPRMC,172452,A,1027.99849,N,07314.60102,W,352,8.72,241119,003.1,W,*6A
2019.11.24, 17:24:59.0550 UTC -> $GPRMC,172457,A,1028.01050,N,07314.60207,W,0,8.47,241119,003.1,W,*6A
2019.11.24, 17:25:04.0560 UTC -> $GPRMC,172502,A,1028.02214,N,07314.60280,W,352,8.35,241119,003.1,W,*6A
2019.11.24, 17:25:09.0832 UTC -> $GPRMC,172507,A,1028.03392,N,07314.60360,W,354,8.52,241119,003.1,W,*6A
2019.11.24, 17:25:14.0672 UTC -> $GPRMC,172512,A,1028.04511,N,07314.60421,W,357,7.86,241119,003.1,W,*6A
2019.11.24, 17:25:19.0870 UTC -> $GPRMC,172517,A,1028.05633,N,07314.60419,W,356,8.24,241119,003.1,W,*6A
2019.11.24, 17:25:24.0895 UTC -> $GPRMC,172522,A,1028.06769,N,07314.60475,W,355,8.15,241119,003.1,W,*6A
2019.11.24, 17:25:30.0159 UTC -> $GPRMC,172527,A,1028.07946,N,07314.60614,W,350,7.70,241119,003.1,W,*6A
2019.11.24, 17:25:34.0925 UTC -> $GPRMC,172532,A,1028.08962,N,07314.60778,W,350,7.61,241119,003.1,W,*6A
2019.11.24, 17:25:39.0927 UTC -> $GPRMC,172537,A,1028.10081,N,07314.60861,W,358,8.05,241119,003.1,W,*6A
2019.11.24, 17:25:45.0070 UTC -> $GPRMC,172542,A,1028.11166,N,07314.60882,W,351,7.20,241119,003.1,W,*6A
2019.11.24, 17:25:54.0673 UTC -> $GPRMC,172552,A,1028.13123,N,07314.61015,W,359,6.38,241119,003.1,W,*6A
2019.11.24, 17:26:00.0127 UTC -> $GPRMC,172557,A,1028.14232,N,07314.61079,W,358,7.57,241119,003.1,W,*6A
2019.11.24, 17:26:05.0231 UTC -> $GPRMC,172602,A,1028.15403,N,07314.61123,W,356,7.57,241119,003.1,W,*6A
2019.11.24, 17:26:10.0307 UTC -> $GPRMC,172607,A,1028.16434,N,07314.61154,W,354,7.18,241119,003.1,W,*6A
2019.11.24, 17:26:15.0402 UTC -> $GPRMC,172612,A,1028.17407,N,07314.61256,W,348,6.75,241119,003.1,W,*6A
2019.11.24, 17:26:20.0520 UTC -> $GPRMC,172618,A,1028.18509,N,07314.61376,W,1,6.08,241119,003.1,W,*6A
2019.11.24, 17:26:25.0850 UTC -> $GPRMC,172623,A,1028.19326,N,07314.61408,W,355,0.00,241119,003.1,W,*6A
2019.11.24, 17:26:30.0492 UTC -> $GPRMC,172628,A,1028.19454,N,07314.61425,W,353,0.00,241119,003.1,W,*6A
2019.11.24, 17:26:35.0505 UTC -> $GPRMC,172633,A,1028.19454,N,07314.61425,W,353,0.00,241119,003.1,W,*6A
2019.11.24, 17:26:40.0701 UTC -> $GPRMC,172638,A,1028.19454,N,07314.61425,W,353,0.00,241119,003.1,W,*6A
2019.11.24, 17:26:45.0534 UTC -> $GPRMC,172643,A,1028.19454,N,07314.61425,W,353,0.00,241119,003.1,W,*6A
2019.11.24, 17:26:50.0670 UTC -> $GPRMC,172648,A,1028.19454,N,07314.61425,W,353,0.00,241119,003.1,W,*6A
2019.11.24, 17:26:55.0630 UTC -> $GPRMC,172653,A,1028.19454,N,07314.61425,W,353,0.00,241119,003.1,W,*6A
2019.11.24, 17:27:00.0726 UTC -> $GPRMC,172658,A,1028.19454,N,07314.61425,W,353,0.00,241119,003.1,W,*6A
2019.11.24, 17:27:05.0816 UTC -> $GPRMC,172703,A,1028.19454,N,07314.61425,W,359,0.00,241119,003.1,W,*6A
2019.11.24, 17:27:10.0941 UTC -> $GPRMC,172708,A,1028.20300,N,07314.61380,W,358,5.26,241119,003.1,W,*6A
2019.11.24, 17:27:15.0890 UTC -> $GPRMC,172713,A,1028.21202,N,07314.61388,W,356,7.97,241119,003.1,W,*6A
2019.11.24, 17:27:20.0971 UTC -> $GPRMC,172718,A,1028.22333,N,07314.61428,W,357,8.05,241119,003.1,W,*6A
2019.11.24, 17:27:26.0074 UTC -> $GPRMC,172723,A,1028.23446,N,07314.61451,W,0,7.52,241119,003.1,W,*6A
2019.11.24, 17:27:31.0122 UTC -> $GPRMC,172728,A,1028.24506,N,07314.61527,W,356,7.22,241119,003.1,W,*6A
2019.11.24, 17:27:36.0326 UTC -> $GPRMC,172733,A,1028.25504,N,07314.61601,W,353,6.67,241119,003.1,W,*6A
2019.11.24, 17:27:41.0171 UTC -> $GPRMC,172738,A,1028.26491,N,07314.61646,W,355,7.14,241119,003.1,W,*6A
2019.11.24, 17:27:45.0674 UTC -> $GPRMC,172743,A,1028.27548,N,07314.61703,W,0,7.09,241119,003.1,W,*6A
2019.11.24, 17:27:51.0256 UTC -> $GPRMC,172748,A,1028.28588,N,07314.61751,W,356,7.23,241119,003.1,W,*6A
2019.11.24, 17:27:56.0293 UTC -> $GPRMC,172753,A,1028.29605,N,07314.61794,W,356,6.50,241119,003.1,W,*6A
2019.11.24, 17:28:01.0774 UTC -> $GPRMC,172759,A,1028.30618,N,07314.61846,W,350,5.90,241119,003.1,W,*6A
2019.11.24, 17:28:06.0412 UTC -> $GPRMC,172804,A,1028.31478,N,07314.61915,W,351,6.69,241119,003.1,W,*6A
2019.11.24, 17:28:11.0648 UTC -> $GPRMC,172809,A,1028.32461,N,07314.62005,W,355,6.64,241119,003.1,W,*6A
2019.11.24, 17:28:16.0550 UTC -> $GPRMC,172814,A,1028.33345,N,07314.61995,W,356,5.55,241119,003.1,W,*6A
2019.11.24, 17:28:21.0820 UTC -> $GPRMC,172819,A,1028.34161,N,07314.61959,W,355,5.54,241119,003.1,W,*6A
2019.11.24, 17:28:26.0266 UTC -> $GPRMC,172824,A,1028.34911,N,07314.61937,W,3,5.02,241119,003.1,W,*6A
2019.11.24, 17:28:32.0151 UTC -> $GPRMC,172829,A,1028.35512,N,07314.61973,W,359,0.00,241119,003.1,W,*6A
2019.11.24, 17:28:37.0476 UTC -> $GPRMC,172834,A,1028.35597,N,07314.61979,W,0,0.00,241119,003.1,W,*6A
2019.11.24, 17:28:41.0345 UTC -> $GPRMC,172839,A,1028.35597,N,07314.61979,W,0,0.00,241119,003.1,W,*6A
2019.11.24, 17:29:32.0248 UTC -> $GPRMC,172929,A,1028.35597,N,07314.61979,W,0,0.00,241119,003.1,W,*6A
2019.11.24, 17:29:37.0269 UTC -> $GPRMC,172934,A,1028.35597,N,07314.61979,W,0,0.00,241119,003.1,W,*6A
2019.11.24, 17:29:42.0318 UTC -> $GPRMC,172940,A,1028.35597,N,07314.61979,W,0,0.00,241119,003.1,W,*6A
2019.11.24, 17:29:47.0452 UTC -> $GPRMC,172945,A,1028.35597,N,07314.61979,W,0,0.00,241119,003.1,W,*6A
2019.11.24, 17:29:52.0493 UTC -> $GPRMC,172950,A,1028.35597,N,07314.61979,W,0,0.00,241119,003.1,W,*6A
2019.11.24, 17:29:57.0497 UTC -> $GPRMC,172955,A,1028.35597,N,07314.61979,W,0,0.00,241119,003.1,W,*6A
2019.11.24, 17:30:02.0653 UTC -> $GPRMC,173000,A,1028.35597,N,07314.61979,W,0,0.00,241119,003.1,W,*6A
2019.11.24, 17:30:07.0577 UTC -> $GPRMC,173005,A,1028.35597,N,07314.61979,W,0,0.00,241119,003.1,W,*6A
2019.11.24, 17:30:12.0649 UTC -> $GPRMC,173010,A,1028.35597,N,07314.61979,W,0,0.00,241119,003.1,W,*6A
2019.11.24, 17:30:17.0682 UTC -> $GPRMC,173015,A,1028.35597,N,07314.61979,W,0,0.00,241119,003.1,W,*6A
2019.11.24, 17:30:22.0804 UTC -> $GPRMC,173020,A,1028.35597,N,07314.61979,W,0,0.00,241119,003.1,W,*6A
2019.11.24, 17:30:27.0795 UTC -> $GPRMC,173025,A,1028.35597,N,07314.61979,W,0,0.00,241119,003.1,W,*6A
2019.11.24, 17:30:32.0841 UTC -> $GPRMC,173030,A,1028.35597,N,07314.61979,W,0,0.00,241119,003.1,W,*6A
2019.11.24, 17:30:37.0951 UTC -> $GPRMC,173035,A,1028.35597,N,07314.61979,W,0,0.00,241119,003.1,W,*6A
2019.11.24, 17:30:43.0010 UTC -> $GPRMC,173040,A,1028.35597,N,07314.61979,W,0,0.00,241119,003.1,W,*6A
2019.11.24, 17:30:47.0991 UTC -> $GPRMC,173045,A,1028.35597,N,07314.61979,W,0,0.00,241119,003.1,W,*6A
2019.11.24, 17:30:53.0031 UTC -> $GPRMC,173050,A,1028.35597,N,07314.61979,W,0,0.00,241119,003.1,W,*6A
2019.11.24, 17:30:58.0096 UTC -> $GPRMC,173055,A,1028.35597,N,07314.61979,W,0,0.00,241119,003.1,W,*6A
2019.11.24, 17:31:03.0171 UTC -> $GPRMC,173100,A,1028.35597,N,07314.61979,W,0,0.00,241119,003.1,W,*6A
2019.11.24, 17:31:08.0223 UTC -> $GPRMC,173105,A,1028.35597,N,07314.61979,W,0,0.00,241119,003.1,W,*6A
2019.11.24, 17:31:13.0253 UTC -> $GPRMC,173110,A,1028.35597,N,07314.61979,W,0,0.00,241119,003.1,W,*6A
2019.11.24, 17:31:18.0300 UTC -> $GPRMC,173116,A,1028.35597,N,07314.61979,W,0,0.00,241119,003.1,W,*6A
2019.11.24, 17:31:23.0441 UTC -> $GPRMC,173121,A,1028.35597,N,07314.61979,W,0,0.00,241119,003.1,W,*6A
2019.11.24, 17:31:28.0392 UTC -> $GPRMC,173126,A,1028.35597,N,07314.61979,W,0,0.00,241119,003.1,W,*6A
2019.11.24, 17:31:33.0452 UTC -> $GPRMC,173131,A,1028.35597,N,07314.61979,W,0,0.00,241119,003.1,W,*6A
2019.11.24, 17:31:38.0497 UTC -> $GPRMC,173136,A,1028.35597,N,07314.61979,W,0,0.00,241119,003.1,W,*6A
2019.11.24, 17:31:43.0578 UTC -> $GPRMC,173141,A,1028.35597,N,07314.61979,W,0,0.00,241119,003.1,W,*6A
2019.11.24, 17:31:48.0613 UTC -> $GPRMC,173146,A,1028.35597,N,07314.61979,W,0,0.00,241119,003.1,W,*6A
2019.11.24, 17:31:53.0656 UTC -> $GPRMC,173151,A,1028.35597,N,07314.61979,W,0,0.00,241119,003.1,W,*6A
2019.11.24, 17:31:58.0711 UTC -> $GPRMC,173156,A,1028.35597,N,07314.61979,W,0,0.00,241119,003.1,W,*6A
2019.11.24, 17:32:03.0762 UTC -> $GPRMC,173201,A,1028.35597,N,07314.61979,W,0,0.00,241119,003.1,W,*6A
2019.11.24, 17:32:08.0837 UTC -> $GPRMC,173206,A,1028.35597,N,07314.61979,W,0,0.00,241119,003.1,W,*6A
2019.11.24, 17:32:13.0987 UTC -> $GPRMC,173211,A,1028.35597,N,07314.61979,W,0,0.00,241119,003.1,W,*6A
2019.11.24, 17:32:18.0976 UTC -> $GPRMC,173216,A,1028.35597,N,07314.61979,W,4,0.00,241119,003.1,W,*6A
2019.11.24, 17:32:24.0081 UTC -> $GPRMC,173221,A,1028.36637,N,07314.61858,W,354,0.00,241119,003.1,W,*6A
2019.11.24, 17:32:29.0053 UTC -> $GPRMC,173226,A,1028.37077,N,07314.61906,W,353,0.00,241119,003.1,W,*6A
2019.11.24, 17:32:34.0102 UTC -> $GPRMC,173231,A,1028.37317,N,07314.61909,W,2,0.00,241119,003.1,W,*6A
2019.11.24, 17:32:39.0112 UTC -> $GPRMC,173236,A,1028.37317,N,07314.61909,W,360,0.00,241119,003.1,W,*6A
2019.11.24, 17:32:44.0178 UTC -> $GPRMC,173241,A,1028.37317,N,07314.61909,W,360,0.00,241119,003.1,W,*6A
2019.11.24, 17:32:49.0327 UTC -> $GPRMC,173246,A,1028.37317,N,07314.61909,W,360,0.00,241119,003.1,W,*6A
2019.11.24, 17:32:54.0340 UTC -> $GPRMC,173251,A,1028.37317,N,07314.61909,W,360,0.00,241119,003.1,W,*6A
2019.11.24, 17:32:59.0732 UTC -> $GPRMC,173257,A,1028.37317,N,07314.61909,W,360,0.00,241119,003.1,W,*6A
2019.11.24, 17:33:04.0392 UTC -> $GPRMC,173302,A,1028.37317,N,07314.61909,W,360,0.00,241119,003.1,W,*6A
2019.11.24, 17:33:09.0478 UTC -> $GPRMC,173307,A,1028.37317,N,07314.61909,W,360,0.00,241119,003.1,W,*6A
2019.11.24, 17:33:14.0571 UTC -> $GPRMC,173312,A,1028.37317,N,07314.61909,W,338,0.00,241119,003.1,W,*6A
2019.11.24, 17:33:19.0548 UTC -> $GPRMC,173317,A,1028.37981,N,07314.62180,W,358,0.00,241119,003.1,W,*6A
2019.11.24, 17:33:24.0601 UTC -> $GPRMC,173322,A,1028.38575,N,07314.62216,W,356,0.00,241119,003.1,W,*6A
2019.11.24, 17:33:29.0638 UTC -> $GPRMC,173327,A,1028.39095,N,07314.62233,W,355,0.00,241119,003.1,W,*6A
2019.11.24, 17:33:34.0710 UTC -> $GPRMC,173332,A,1028.39624,N,07314.62214,W,2,0.00,241119,003.1,W,*6A
2019.11.24, 17:35:14.0198 UTC -> $GPRMC,173511,A,1028.44818,N,07314.63102,W,269,0.00,241119,003.1,W,*6A
2019.11.24, 17:35:19.0273 UTC -> $GPRMC,173515,A,1028.45058,N,07314.63395,W,269,0.00,241119,003.1,W,*6A
2019.11.24, 17:35:24.0332 UTC -> $GPRMC,173515,A,1028.45058,N,07314.63395,W,269,0.00,241119,003.1,W,*6A
2019.11.24, 17:35:29.0371 UTC -> $GPRMC,173515,A,1028.45058,N,07314.63395,W,269,0.00,241119,003.1,W,*6A
2019.11.24, 17:35:34.0444 UTC -> $GPRMC,173515,A,1028.45058,N,07314.63395,W,269,0.00,241119,003.1,W,*6A
2019.11.24, 17:35:39.0588 UTC -> $GPRMC,173515,A,1028.45058,N,07314.63395,W,269,0.00,241119,003.1,W,*6A
2019.11.24, 17:35:44.0552 UTC -> $GPRMC,173515,A,1028.45058,N,07314.63395,W,269,0.00,241119,003.1,W,*6A
2019.11.24, 17:35:49.0729 UTC -> $GPRMC,173515,A,1028.45058,N,07314.63395,W,269,0.00,241119,003.1,W,*6A
2019.11.24, 17:35:54.0696 UTC -> $GPRMC,173515,A,1028.45058,N,07314.63395,W,269,0.00,241119,003.1,W,*6A
2019.11.24, 17:35:59.0731 UTC -> $GPRMC,173515,A,1028.45058,N,07314.63395,W,269,0.00,241119,003.1,W,*6A
2019.11.24, 17:36:04.0774 UTC -> $GPRMC,173515,A,1028.45058,N,07314.63395,W,269,0.00,241119,003.1,W,*6A
2019.11.24, 17:36:09.0807 UTC -> $GPRMC,173515,A,1028.45058,N,07314.63395,W,269,0.00,241119,003.1,W,*6A
2019.11.24, 17:36:14.0827 UTC -> $GPRMC,173515,A,1028.45058,N,07314.63395,W,269,0.00,241119,003.1,W,*6A
2019.11.24, 17:36:19.0927 UTC -> $GPRMC,173515,A,1028.45058,N,07314.63395,W,269,0.00,241119,003.1,W,*6A
2019.11.24, 17:36:24.0954 UTC -> $GPRMC,173515,A,1028.45058,N,07314.63395,W,269,0.00,241119,003.1,W,*6A
2019.11.24, 17:36:29.0990 UTC -> $GPRMC,173515,A,1028.45058,N,07314.63395,W,269,0.00,241119,003.1,W,*6A
2019.11.24, 17:36:35.0110 UTC -> $GPRMC,173515,A,1028.45058,N,07314.63395,W,269,0.00,241119,003.1,W,*6A
2019.11.24, 17:36:40.0128 UTC -> $GPRMC,173515,A,1028.45058,N,07314.63395,W,269,0.00,241119,003.1,W,*6A
2019.11.24, 17:36:47.0015 UTC -> $GPRMC,173515,A,1028.45058,N,07314.63395,W,269,0.00,241119,003.1,W,*6A
2019.11.24, 17:36:50.0592 UTC -> $GPRMC,173515,A,1028.45058,N,07314.63395,W,269,0.00,241119,003.1,W,*6A
2019.11.24, 17:36:55.0313 UTC -> $GPRMC,173515,A,1028.45058,N,07314.63395,W,269,0.00,241119,003.1,W,*6A
2019.11.24, 17:37:00.0425 UTC -> $GPRMC,173515,A,1028.45058,N,07314.63395,W,269,0.00,241119,003.1,W,*6A
2019.11.24, 17:37:05.0356 UTC -> $GPRMC,173515,A,1028.45058,N,07314.63395,W,269,0.00,241119,003.1,W,*6A
2019.11.24, 17:37:10.0395 UTC -> $GPRMC,173515,A,1028.45058,N,07314.63395,W,269,0.00,241119,003.1,W,*6A
2019.11.24, 17:37:15.0450 UTC -> $GPRMC,173713,A,1028.42892,N,07314.66258,W,242,0.00,241119,003.1,W,*6A
2019.11.24, 17:37:20.0531 UTC -> $GPRMC,173718,A,1028.42558,N,07314.66634,W,230,0.00,241119,003.1,W,*6A
2019.11.24, 17:37:25.0571 UTC -> $GPRMC,173723,A,1028.42558,N,07314.66634,W,232,0.00,241119,003.1,W,*6A
2019.11.24, 17:37:30.0631 UTC -> $GPRMC,173728,A,1028.42258,N,07314.66930,W,229,0.00,241119,003.1,W,*6A
2019.11.24, 17:37:35.0699 UTC -> $GPRMC,173733,A,1028.41930,N,07314.67426,W,232,0.00,241119,003.1,W,*6A
2019.11.24, 17:37:40.0795 UTC -> $GPRMC,173738,A,1028.41559,N,07314.68003,W,225,0.00,241119,003.1,W,*6A
2019.11.24, 17:37:45.0753 UTC -> $GPRMC,173743,A,1028.41173,N,07314.68576,W,225,0.00,241119,003.1,W,*6A
2019.11.24, 17:37:50.0850 UTC -> $GPRMC,173748,A,1028.41173,N,07314.68576,W,225,0.00,241119,003.1,W,*6A
2019.11.24, 17:37:55.0989 UTC -> $GPRMC,173753,A,1028.41173,N,07314.68576,W,225,0.00,241119,003.1,W,*6A
2019.11.24, 17:38:00.0874 UTC -> $GPRMC,173758,A,1028.41173,N,07314.68576,W,225,0.00,241119,003.1,W,*6A
2019.11.24, 17:38:05.0947 UTC -> $GPRMC,173803,A,1028.41173,N,07314.68576,W,225,0.00,241119,003.1,W,*6A
2019.11.24, 17:38:10.0971 UTC -> $GPRMC,173808,A,1028.41173,N,07314.68576,W,225,0.00,241119,003.1,W,*6A
2019.11.24, 17:38:16.0024 UTC -> $GPRMC,173813,A,1028.41173,N,07314.68576,W,225,0.00,241119,003.1,W,*6A
2019.11.24, 17:38:26.0112 UTC -> $GPRMC,173823,A,1028.41019,N,07314.68521,W,237,0.00,241119,003.1,W,*6A
2019.11.24, 17:38:31.0132 UTC -> $GPRMC,173828,A,1028.40643,N,07314.69078,W,229,5.40,241119,003.1,W,*6A
2019.11.24, 17:38:36.0257 UTC -> $GPRMC,173833,A,1028.40162,N,07314.69673,W,224,5.25,241119,003.1,W,*6A
2019.11.24, 17:38:41.0270 UTC -> $GPRMC,173838,A,1028.39773,N,07314.70353,W,238,6.35,241119,003.1,W,*6A
